$GPGGA,165703.00,3452.4862,N,11815.5305,W,2,11,0.70,740.0,M,,,,*1B
$GPRMC,165703.00,A,3452.4862,N,11815.5305,W,57.6,287.8,140816,,*1B
$GPGGA,165704.00,3452.4912,N,11815.5490,W,2,11,0.70,740.0,M,,,,*11
$GPRMC,165704.00,A,3452.4912,N,11815.5490,W,59.9,287.6,140816,,*1E
$GPGGA,165705.00,3452.4963,N,11815.5685,W,2,11,0.70,740.0,M,,,,*10
$GPRMC,165705.00,A,3452.4963,N,11815.5685,W,62.6,287.6,140816,,*18
$GPGGA,165706.00,3452.5017,N,11815.5888,W,2,11,0.70,741.0,M,,,,*1A
$GPRMC,165706.00,A,3452.5017,N,11815.5888,W,65.2,287.6,140816,,*10
$GPGGA,165707.00,3452.5072,N,11815.6100,W,2,11,0.70,741.0,M,,,,*12
$GPRMC,165707.00,A,3452.5072,N,11815.6100,W,67.2,286.6,140816,,*1B
$GPGGA,165708.00,3452.5125,N,11815.6317,W,2,11,0.70,742.0,M,,,,*19
$GPRMC,165708.00,A,3452.5125,N,11815.6317,W,68.7,286.7,140816,,*18
$GPGGA,165709.00,3452.5180,N,11815.6537,W,2,11,0.70,743.0,M,,,,*12
$GPRMC,165709.00,A,3452.5180,N,11815.6537,W,68.5,291.4,140816,,*15
$GPGGA,165710.00,3452.5251,N,11815.6752,W,2,11,0.70,745.0,M,,,,*12
$GPRMC,165710.00,A,3452.5251,N,11815.6752,W,68.7,301.4,140816,,*19
$GPGGA,165711.00,3452.5353,N,11815.6950,W,2,11,0.70,747.0,M,,,,*1E
$GPRMC,165711.00,A,3452.5353,N,11815.6950,W,68.5,313.8,140816,,*1A
$GPGGA,165712.00,3452.5490,N,11815.7113,W,2,11,0.70,749.0,M,,,,*15
$GPRMC,165712.00,A,3452.5490,N,11815.7113,W,68.2,325.7,140816,,*12
$GPGGA,165713.00,3452.5649,N,11815.7238,W,2,11,0.70,752.0,M,,,,*12
$GPRMC,165713.00,A,3452.5649,N,11815.7238,W,60.8,333.2,140816,,*1F
$GPGGA,165714.00,3452.5801,N,11815.7328,W,2,11,0.70,755.0,M,,,,*10
$GPRMC,165714.00,A,3452.5801,N,11815.7328,W,47.6,336.6,140816,,*10
$GPGGA,165715.00,3452.5921,N,11815.7389,W,2,11,0.70,757.0,M,,,,*1B
$GPRMC,165715.00,A,3452.5921,N,11815.7389,W,38.9,343.2,140816,,*18
$GPGGA,165716.00,3452.6025,N,11815.7424,W,2,11,0.70,758.0,M,,,,*19
$GPRMC,165716.00,A,3452.6025,N,11815.7424,W,37.4,349.8,140816,,*17
$GPGGA,165717.00,3452.6128,N,11815.7442,W,2,11,0.70,759.0,M,,,,*15
$GPRMC,165717.00,A,3452.6128,N,11815.7442,W,33.8,40.2,140816,,*22
$GPGGA,165718.00,3452.6187,N,11815.7319,W,2,11,0.70,759.0,M,,,,*16
$GPRMC,165718.00,A,3452.6187,N,11815.7319,W,34.9,77.3,140816,,*22
$GPGGA,165719.00,3452.6204,N,11815.7200,W,2,11,0.70,758.0,M,,,,*17
$GPRMC,165719.00,A,3452.6204,N,11815.7200,W,38.0,109.5,140816,,*19
$GPGGA,165720.00,3452.6162,N,11815.7078,W,2,10,0.70,758.0,M,,,,*12
$GPRMC,165720.00,A,3452.6162,N,11815.7078,W,41.7,127.3,140816,,*1E
$GPGGA,165721.00,3452.6087,N,11815.6967,W,2,11,0.70,756.0,M,,,,*10
$GPRMC,165721.00,A,3452.6087,N,11815.6967,W,47.8,136.4,140816,,*1D
$GPGGA,165722.00,3452.5984,N,11815.6854,W,2,11,0.70,754.0,M,,,,*19
$GPRMC,165722.00,A,3452.5984,N,11815.6854,W,52.0,137.5,140816,,*1A
$GPGGA,165723.00,3452.5873,N,11815.6736,W,2,11,0.70,753.0,M,,,,*1D
$GPRMC,165723.00,A,3452.5873,N,11815.6736,W,55.7,136.0,140816,,*1D
$GPGGA,165724.00,3452.5760,N,11815.6604,W,2,11,0.70,751.0,M,,,,*15
$GPRMC,165724.00,A,3452.5760,N,11815.6604,W,51.6,128.9,140816,,*14
$GPGGA,165725.00,3452.5672,N,11815.6467,W,2,11,0.70,749.0,M,,,,*18
$GPRMC,165725.00,A,3452.5672,N,11815.6467,W,42.2,117.5,140816,,*16
$GPGGA,165726.00,3452.5622,N,11815.6340,W,2,10,0.70,747.0,M,,,,*13
$GPRMC,165726.00,A,3452.5622,N,11815.6340,W,40.8,92.6,140816,,*25
$GPGGA,165727.00,3452.5623,N,11815.6199,W,2,10,0.70,746.0,M,,,,*14
$GPRMC,165727.00,A,3452.5623,N,11815.6199,W,38.9,61.7,140816,,*20
$GPGGA,165728.00,3452.5680,N,11815.6085,W,2,11,0.70,746.0,M,,,,*1F
$GPRMC,165728.00,A,3452.5680,N,11815.6085,W,41.0,32.2,140816,,*2E
$GPGGA,165729.00,3452.5781,N,11815.6012,W,2,11,0.70,746.0,M,,,,*10
$GPRMC,165729.00,A,3452.5781,N,11815.6012,W,46.0,346.8,140816,,*1C
$GPGGA,165731.00,3452.6032,N,11815.6041,W,2,11,0.70,748.0,M,,,,*1D
$GPRMC,165731.00,A,3452.6032,N,11815.6041,W,48.7,330.2,140816,,*1D
$GPGGA,165732.00,3452.6150,N,11815.6129,W,2,11,0.70,749.0,M,,,,*15
$GPRMC,165732.00,A,3452.6150,N,11815.6129,W,50.4,321.1,140816,,*1D
$GPGGA,165733.00,3452.6259,N,11815.6237,W,2,11,0.70,751.0,M,,,,*1B
$GPRMC,165733.00,A,3452.6259,N,11815.6237,W,41.5,325.9,140816,,*17
$GPGGA,165734.00,3452.6354,N,11815.6315,W,2,11,0.70,752.0,M,,,,*12
$GPRMC,165734.00,A,3452.6354,N,11815.6315,W,39.5,348.0,140816,,*10
$GPGGA,165735.00,3452.6464,N,11815.6340,W,2,11,0.70,753.0,M,,,,*16
$GPRMC,165735.00,A,3452.6464,N,11815.6340,W,40.8,352.1,140816,,*1C
$GPGGA,165736.00,3452.6578,N,11815.6354,W,2,11,0.70,753.0,M,,,,*1C
$GPRMC,165736.00,A,3452.6578,N,11815.6354,W,42.6,44.0,140816,,*2F
$GPGGA,165737.00,3452.6649,N,11815.6190,W,2,11,0.70,753.0,M,,,,*16
$GPRMC,165737.00,A,3452.6649,N,11815.6190,W,46.1,62.0,140816,,*22
$GPGGA,165738.00,3452.6707,N,11815.6048,W,2,11,0.70,753.0,M,,,,*16
$GPRMC,165738.00,A,3452.6707,N,11815.6048,W,46.4,58.3,140816,,*2D
$GPGGA,165739.00,3452.6778,N,11815.5913,W,2,10,0.70,753.0,M,,,,*1A
$GPRMC,165739.00,A,3452.6778,N,11815.5913,W,48.2,21.3,140816,,*26
$GPGGA,165740.00,3452.6932,N,11815.5885,W,2,10,0.70,753.0,M,,,,*1A
$GPRMC,165740.00,A,3452.6932,N,11815.5885,W,49.5,357.7,140816,,*16
$GPGGA,165741.00,3452.7071,N,11815.5897,W,2,10,0.70,754.0,M,,,,*10
$GPRMC,165741.00,A,3452.7071,N,11815.5897,W,52.3,345.6,140816,,*15
$GPGGA,165742.00,3452.7213,N,11815.5944,W,2,10,0.70,755.0,M,,,,*1B
$GPRMC,165742.00,A,3452.7213,N,11815.5944,W,53.7,0.4,140816,,*1A
$GPGGA,165743.00,3452.7364,N,11815.5937,W,2,10,0.70,756.0,M,,,,*1C
$GPRMC,165743.00,A,3452.7364,N,11815.5937,W,55.1,20.7,140816,,*2F
$GPGGA,165744.00,3452.7507,N,11815.5863,W,2,10,0.70,756.0,M,,,,*18
$GPRMC,165744.00,A,3452.7507,N,11815.5863,W,56.8,38.5,140816,,*2A
$GPGGA,165745.00,3452.7628,N,11815.5738,W,2,10,0.70,756.0,M,,,,*16
$GPRMC,165745.00,A,3452.7628,N,11815.5738,W,59.8,40.0,140816,,*21
$GPGGA,165746.00,3452.7756,N,11815.5606,W,2,10,0.70,756.0,M,,,,*11
$GPRMC,165746.00,A,3452.7756,N,11815.5606,W,62.3,27.8,140816,,*2C
$GPGGA,165747.00,3452.7913,N,11815.5510,W,2,10,0.70,755.0,M,,,,*18
$GPRMC,165747.00,A,3452.7913,N,11815.5510,W,63.9,11.2,140816,,*22
$GPGGA,165748.00,3452.8090,N,11815.5472,W,2,10,0.70,755.0,M,,,,*1F
$GPRMC,165748.00,A,3452.8090,N,11815.5472,W,65.1,352.0,140816,,*1D
$GPGGA,165749.00,3452.8272,N,11815.5509,W,2,10,0.70,756.0,M,,,,*1E
$GPRMC,165749.00,A,3452.8272,N,11815.5509,W,62.5,332.5,140816,,*1F
$GPGGA,165750.00,3452.8425,N,11815.5614,W,2,11,0.70,756.0,M,,,,*1C
$GPRMC,165750.00,A,3452.8425,N,11815.5614,W,57.2,318.9,140816,,*19
$GPGGA,165751.00,3452.8541,N,11815.5747,W,2,11,0.70,758.0,M,,,,*17
$GPRMC,165751.00,A,3452.8541,N,11815.5747,W,42.4,316.3,140816,,*1A
$GPGGA,165752.00,3452.8625,N,11815.5846,W,2,11,0.70,759.0,M,,,,*1A
$GPRMC,165752.00,A,3452.8625,N,11815.5846,W,39.9,334.4,140816,,*10
$GPGGA,165753.00,3452.8726,N,11815.5900,W,2,10,0.70,759.0,M,,,,*1B
$GPRMC,165753.00,A,3452.8726,N,11815.5900,W,40.2,338.0,140816,,*1D
$GPGGA,165754.00,3452.8830,N,11815.5947,W,2,10,0.70,760.0,M,,,,*1D
$GPRMC,165754.00,A,3452.8830,N,11815.5947,W,40.9,47.9,140816,,*28
$GPGGA,165755.00,3452.8895,N,11815.5757,W,2,10,0.70,760.0,M,,,,*1C
$GPRMC,165755.00,A,3452.8895,N,11815.5757,W,44.0,77.5,140816,,*2B
$GPGGA,165756.00,3452.8918,N,11815.5605,W,2,10,0.70,759.0,M,,,,*17
$GPRMC,165756.00,A,3452.8918,N,11815.5605,W,47.8,105.3,140816,,*13
$GPGGA,165757.00,3452.8874,N,11815.5446,W,2,10,0.70,758.0,M,,,,*19
$GPRMC,165757.00,A,3452.8874,N,11815.5446,W,51.5,129.4,140816,,*1F
$GPGGA,165758.00,3452.8777,N,11815.5315,W,2,10,0.70,758.0,M,,,,*1B
$GPRMC,165758.00,A,3452.8777,N,11815.5315,W,54.5,149.5,140816,,*1F
$GPGGA,165759.00,3452.8641,N,11815.5225,W,2,10,0.70,757.0,M,,,,*13
$GPRMC,165759.00,A,3452.8641,N,11815.5225,W,57.0,166.8,140816,,*1E
$GPGGA,165800.00,3452.8482,N,11815.5186,W,2,10,0.70,756.0,M,,,,*16
$GPRMC,165800.00,A,3452.8482,N,11815.5186,W,60.2,175.4,140816,,*12
$GPGGA,165801.00,3452.8314,N,11815.5171,W,2,10,0.70,755.0,M,,,,*14
$GPRMC,165801.00,A,3452.8314,N,11815.5171,W,63.1,180.3,140816,,*1E
$GPGGA,165802.00,3452.8137,N,11815.5174,W,2,11,0.70,754.0,M,,,,*11
$GPRMC,165802.00,A,3452.8137,N,11815.5174,W,66.0,179.4,140816,,*1E
$GPGGA,165803.00,3452.7953,N,11815.5172,W,2,11,0.70,754.0,M,,,,*13
$GPRMC,165803.00,A,3452.7953,N,11815.5172,W,69.0,178.6,140816,,*10
$GPGGA,165804.00,3452.7760,N,11815.5167,W,2,11,0.70,753.0,M,,,,*19
$GPRMC,165804.00,A,3452.7760,N,11815.5167,W,70.6,179.2,140816,,*16
$GPGGA,165805.00,3452.7563,N,11815.5164,W,2,11,0.70,753.0,M,,,,*1A
$GPRMC,165805.00,A,3452.7563,N,11815.5164,W,70.6,180.1,140816,,*10
$GPGGA,165806.00,3452.7365,N,11815.5164,W,2,11,0.70,753.0,M,,,,*19
$GPRMC,165806.00,A,3452.7365,N,11815.5164,W,72.4,182.9,140816,,*19
$GPGGA,165807.00,3452.7163,N,11815.5178,W,2,11,0.70,753.0,M,,,,*11
$GPRMC,165807.00,A,3452.7163,N,11815.5178,W,73.9,188.4,140816,,*1A
$GPGGA,165808.00,3452.6956,N,11815.5217,W,2,10,0.70,752.0,M,,,,*1B
$GPRMC,165808.00,A,3452.6956,N,11815.5217,W,75.5,195.3,140816,,*11
$GPGGA,165809.00,3452.6753,N,11815.5288,W,2,10,0.70,752.0,M,,,,*17
$GPRMC,165809.00,A,3452.6753,N,11815.5288,W,76.6,203.4,140816,,*16
$GPGGA,165810.00,3452.6557,N,11815.5397,W,2,11,0.70,752.0,M,,,,*17
$GPRMC,165810.00,A,3452.6557,N,11815.5397,W,72.0,202.7,140816,,*17
$GPGGA,165811.00,3452.6373,N,11815.5492,W,2,11,0.70,751.0,M,,,,*17
$GPRMC,165811.00,A,3452.6373,N,11815.5492,W,70.1,194.9,140816,,*15
$GPGGA,165812.00,3452.6184,N,11815.5550,W,2,11,0.70,751.0,M,,,,*11
$GPRMC,165812.00,A,3452.6184,N,11815.5550,W,69.8,182.8,140816,,*14
$GPGGA,165813.00,3452.5991,N,11815.5557,W,2,11,0.70,749.0,M,,,,*11
$GPRMC,165813.00,A,3452.5991,N,11815.5557,W,62.2,176.0,140816,,*1F
$GPGGA,165814.00,3452.5821,N,11815.5540,W,2,11,0.70,748.0,M,,,,*1B
$GPRMC,165814.00,A,3452.5821,N,11815.5540,W,48.3,176.9,140816,,*14
$GPGGA,165815.00,3452.5689,N,11815.5531,W,2,11,0.70,747.0,M,,,,*1F
$GPRMC,165815.00,A,3452.5689,N,11815.5531,W,38.3,169.8,140816,,*17
$GPGGA,165816.00,3452.5586,N,11815.5508,W,2,11,0.70,747.0,M,,,,*1A
$GPRMC,165816.00,A,3452.5586,N,11815.5508,W,38.8,144.4,140816,,*1A
$GPGGA,165817.00,3452.5499,N,11815.5425,W,2,11,0.70,746.0,M,,,,*1B
$GPRMC,165817.00,A,3452.5499,N,11815.5425,W,41.6,119.1,140816,,*17
$GPGGA,165818.00,3452.5447,N,11815.5297,W,2,11,0.70,745.0,M,,,,*1B
$GPRMC,165818.00,A,3452.5447,N,11815.5297,W,45.3,97.6,140816,,*25
$GPGGA,165819.00,3452.5435,N,11815.5141,W,2,10,0.70,745.0,M,,,,*16
$GPRMC,165819.00,A,3452.5435,N,11815.5141,W,49.3,93.7,140816,,*20
$GPGGA,165820.00,3452.5429,N,11815.4971,W,2,10,0.70,744.0,M,,,,*1A
$GPRMC,165820.00,A,3452.5429,N,11815.4971,W,52.1,114.7,140816,,*1B
$GPGGA,165821.00,3452.5364,N,11815.4810,W,2,11,0.70,743.0,M,,,,*15
$GPRMC,165821.00,A,3452.5364,N,11815.4810,W,54.3,135.9,140816,,*1B
$GPGGA,165822.00,3452.5252,N,11815.4685,W,2,11,0.70,743.0,M,,,,*10
$GPRMC,165822.00,A,3452.5252,N,11815.4685,W,48.1,147.5,140816,,*18
$GPGGA,165823.00,3452.5138,N,11815.4602,W,2,11,0.70,742.0,M,,,,*10
$GPRMC,165823.00,A,3452.5138,N,11815.4602,W,43.0,134.7,140816,,*15
$GPGGA,165824.00,3452.5055,N,11815.4497,W,2,10,0.70,741.0,M,,,,*11
$GPRMC,165824.00,A,3452.5055,N,11815.4497,W,41.3,114.1,140816,,*13
$GPGGA,165825.00,3452.5012,N,11815.4367,W,2,10,0.70,741.0,M,,,,*1B
$GPRMC,165825.00,A,3452.5012,N,11815.4367,W,32.4,112.0,140816,,*1D
$GPGGA,165826.00,3452.4982,N,11815.4267,W,2,10,0.70,741.0,M,,,,*18
$GPRMC,165826.00,A,3452.4982,N,11815.4267,W,31.7,142.4,140816,,*1F
$GPGGA,165827.00,3452.4909,N,11815.4205,W,2,11,0.70,741.0,M,,,,*1F
$GPRMC,165827.00,A,3452.4909,N,11815.4205,W,34.1,175.0,140816,,*1A
$GPGGA,165828.00,3452.4812,N,11815.4201,W,2,11,0.70,740.0,M,,,,*1E
$GPRMC,165828.00,A,3452.4812,N,11815.4201,W,34.7,205.9,140816,,*11
$GPGGA,165829.00,3452.4725,N,11815.4261,W,2,10,0.70,739.0,M,,,,*1D
$GPRMC,165829.00,A,3452.4725,N,11815.4261,W,37.5,263.1,140816,,*14
$GPGGA,165831.00,3452.4662,N,11815.4503,W,2,11,0.70,739.0,M,,,,*14
$GPRMC,165831.00,A,3452.4662,N,11815.4503,W,41.6,288.1,140816,,*1B
$GPGGA,165833.00,3452.4722,N,11815.4768,W,2,11,0.70,739.0,M,,,,*1C
$GPRMC,165833.00,A,3452.4722,N,11815.4768,W,45.6,288.0,140816,,*16
$GPGGA,165834.00,3452.4762,N,11815.4916,W,2,11,0.70,739.0,M,,,,*18
$GPRMC,165834.00,A,3452.4762,N,11815.4916,W,49.6,287.6,140816,,*17
$GPGGA,165835.00,3452.4804,N,11815.5079,W,2,11,0.70,739.0,M,,,,*17
$GPRMC,165835.00,A,3452.4804,N,11815.5079,W,53.7,287.9,140816,,*1D
$GPGGA,165836.00,3452.4851,N,11815.5252,W,2,10,0.70,739.0,M,,,,*1E
$GPRMC,165836.00,A,3452.4851,N,11815.5252,W,56.4,287.8,140816,,*12
$GPGGA,165837.00,3452.4899,N,11815.5434,W,2,11,0.70,739.0,M,,,,*1C
$GPRMC,165837.00,A,3452.4899,N,11815.5434,W,58.5,287.9,140816,,*1F
$GPGGA,165838.00,3452.4950,N,11815.5622,W,2,11,0.70,740.0,M,,,,*1C
$GPRMC,165838.00,A,3452.4950,N,11815.5622,W,61.1,288.0,140816,,*19
$GPGGA,165839.00,3452.5003,N,11815.5821,W,2,11,0.70,740.0,M,,,,*1E
$GPRMC,165839.00,A,3452.5003,N,11815.5821,W,63.7,287.6,140816,,*16
$GPGGA,165840.00,3452.5056,N,11815.6026,W,2,11,0.70,740.0,M,,,,*1C
$GPRMC,165840.00,A,3452.5056,N,11815.6026,W,65.9,286.5,140816,,*1E
$GPGGA,165841.00,3452.5107,N,11815.6240,W,2,10,0.70,741.0,M,,,,*1A
$GPRMC,165841.00,A,3452.5107,N,11815.6240,W,68.0,285.8,140816,,*12
$GPGGA,165842.00,3452.5161,N,11815.6464,W,2,09,0.70,742.0,M,,,,*12
$GPRMC,165842.00,A,3452.5161,N,11815.6464,W,67.9,289.1,140816,,*12
$GPGGA,165843.00,3452.5226,N,11815.6682,W,2,11,0.70,744.0,M,,,,*16
$GPRMC,165843.00,A,3452.5226,N,11815.6682,W,66.4,297.0,140816,,*1B
$GPGGA,165844.00,3452.5313,N,11815.6882,W,2,11,0.70,746.0,M,,,,*1A
$GPRMC,165844.00,A,3452.5313,N,11815.6882,W,66.4,308.7,140816,,*15
$GPGGA,165845.00,3452.5434,N,11815.7053,W,2,11,0.70,747.0,M,,,,*1D
$GPRMC,165845.00,A,3452.5434,N,11815.7053,W,66.5,320.6,140816,,*19
$GPGGA,165846.00,3452.5580,N,11815.7190,W,2,11,0.70,750.0,M,,,,*18
$GPRMC,165846.00,A,3452.5580,N,11815.7190,W,65.6,331.3,140816,,*1F
$GPGGA,165847.00,3452.5744,N,11815.7291,W,2,11,0.70,753.0,M,,,,*12
$GPRMC,165847.00,A,3452.5744,N,11815.7291,W,55.0,336.1,140816,,*16
$GPGGA,165848.00,3452.5883,N,11815.7363,W,2,11,0.70,756.0,M,,,,*10
$GPRMC,165848.00,A,3452.5883,N,11815.7363,W,42.2,339.3,140816,,*18
$GPGGA,165849.00,3452.5990,N,11815.7412,W,2,11,0.70,757.0,M,,,,*12
$GPRMC,165849.00,A,3452.5990,N,11815.7412,W,36.1,353.2,140816,,*16
$GPGGA,165850.00,3452.6088,N,11815.7422,W,2,11,0.70,758.0,M,,,,*15
$GPRMC,165850.00,A,3452.6088,N,11815.7422,W,34.2,21.8,140816,,*23
$GPGGA,165851.00,3452.6176,N,11815.7371,W,2,11,0.70,758.0,M,,,,*15
$GPRMC,165851.00,A,3452.6176,N,11815.7371,W,34.7,65.1,140816,,*2F
$GPGGA,165852.00,3452.6207,N,11815.7248,W,2,11,0.70,758.0,M,,,,*18
$GPRMC,165852.00,A,3452.6207,N,11815.7248,W,37.2,100.5,140816,,*12
$GPGGA,165853.00,3452.6182,N,11815.7122,W,2,11,0.70,758.0,M,,,,*18
$GPRMC,165853.00,A,3452.6182,N,11815.7122,W,41.5,121.3,140816,,*11
$GPGGA,165854.00,3452.6115,N,11815.7001,W,2,11,0.70,757.0,M,,,,*1E
$GPRMC,165854.00,A,3452.6115,N,11815.7001,W,46.7,134.3,140816,,*19
$GPGGA,165855.00,3452.6018,N,11815.6889,W,2,11,0.70,755.0,M,,,,*18
$GPRMC,165855.00,A,3452.6018,N,11815.6889,W,51.6,138.1,140816,,*14
$GPGGA,165856.00,3452.5908,N,11815.6773,W,2,10,0.70,753.0,M,,,,*1D
$GPRMC,165856.00,A,3452.5908,N,11815.6773,W,56.4,137.6,140816,,*1B
$GPGGA,165857.00,3452.5790,N,11815.6643,W,2,10,0.70,751.0,M,,,,*13
$GPRMC,165857.00,A,3452.5790,N,11815.6643,W,55.8,131.1,140816,,*19
$GPGGA,165858.00,3452.5688,N,11815.6499,W,2,11,0.70,749.0,M,,,,*19
$GPRMC,165858.00,A,3452.5688,N,11815.6499,W,47.4,118.9,140816,,*17
$GPGGA,165859.00,3452.5628,N,11815.6358,W,2,10,0.70,747.0,M,,,,*17
$GPRMC,165859.00,A,3452.5628,N,11815.6358,W,42.2,95.3,140816,,*2B
$GPGGA,165900.00,3452.5624,N,11815.6214,W,2,10,0.70,747.0,M,,,,*1F
$GPRMC,165900.00,A,3452.5624,N,11815.6214,W,42.2,65.2,140816,,*2D
$GPGGA,165901.00,3452.5680,N,11815.6086,W,2,11,0.70,746.0,M,,,,*19
$GPRMC,165901.00,A,3452.5680,N,11815.6086,W,42.9,36.2,140816,,*26
$GPGGA,165902.00,3452.5782,N,11815.6002,W,2,11,0.70,747.0,M,,,,*14
$GPRMC,165902.00,A,3452.5782,N,11815.6002,W,44.6,8.5,140816,,*19
$GPGGA,165903.00,3452.5908,N,11815.5986,W,2,11,0.70,748.0,M,,,,*10
$GPRMC,165903.00,A,3452.5908,N,11815.5986,W,46.8,345.6,140816,,*17
$GPGGA,165904.00,3452.6036,N,11815.6032,W,2,11,0.70,749.0,M,,,,*14
$GPRMC,165904.00,A,3452.6036,N,11815.6032,W,49.0,327.0,140816,,*17
$GPGGA,165905.00,3452.6150,N,11815.6127,W,2,11,0.70,750.0,M,,,,*19
$GPRMC,165905.00,A,3452.6150,N,11815.6127,W,51.6,320.0,140816,,*1A
$GPGGA,165906.00,3452.6261,N,11815.6240,W,2,11,0.70,751.0,M,,,,*18
$GPRMC,165906.00,A,3452.6261,N,11815.6240,W,43.0,325.9,140816,,*13
$GPGGA,165907.00,3452.6359,N,11815.6319,W,2,11,0.70,753.0,M,,,,*1C
$GPRMC,165907.00,A,3452.6359,N,11815.6319,W,40.2,350.0,140816,,*1F
$GPGGA,165908.00,3452.6470,N,11815.6338,W,2,11,0.70,753.0,M,,,,*1C
$GPRMC,165908.00,A,3452.6470,N,11815.6338,W,40.8,12.3,140816,,*23
$GPGGA,165909.00,3452.6582,N,11815.6302,W,2,11,0.70,754.0,M,,,,*1F
$GPRMC,165909.00,A,3452.6582,N,11815.6302,W,42.4,45.2,140816,,*2A
$GPGGA,165910.00,3452.6655,N,11815.6178,W,2,10,0.70,754.0,M,,,,*10
$GPRMC,165910.00,A,3452.6655,N,11815.6178,W,46.4,61.1,140816,,*25
$GPGGA,165911.00,3452.6715,N,11815.6034,W,2,10,0.70,754.0,M,,,,*1D
$GPRMC,165911.00,A,3452.6715,N,11815.6034,W,46.7,56.6,140816,,*28
$GPGGA,165912.00,3452.6790,N,11815.5903,W,2,10,0.70,754.0,M,,,,*1D
$GPRMC,165912.00,A,3452.6790,N,11815.5903,W,50.1,19.0,140816,,*24
$GPGGA,165913.00,3452.6954,N,11815.5878,W,2,10,0.70,755.0,M,,,,*16
$GPRMC,165913.00,A,3452.6954,N,11815.5878,W,51.5,355.9,140816,,*19
$GPGGA,165914.00,3452.7098,N,11815.5896,W,2,10,0.70,755.0,M,,,,*19
$GPRMC,165914.00,A,3452.7098,N,11815.5896,W,54.0,346.7,140816,,*1A
$GPGGA,165915.00,3452.7244,N,11815.5940,W,2,10,0.70,757.0,M,,,,*13
$GPRMC,165915.00,A,3452.7244,N,11815.5940,W,54.5,4.5,140816,,*10
$GPGGA,165916.00,3452.7398,N,11815.5921,W,2,10,0.70,757.0,M,,,,*17
$GPRMC,165916.00,A,3452.7398,N,11815.5921,W,54.0,25.2,140816,,*25
$GPGGA,165917.00,3452.7534,N,11815.5838,W,2,10,0.70,758.0,M,,,,*10
$GPRMC,165917.00,A,3452.7534,N,11815.5838,W,52.1,28.3,140816,,*26
$GPGGA,165918.00,3452.7660,N,11815.5753,W,2,10,0.70,758.0,M,,,,*1F
$GPRMC,165918.00,A,3452.7660,N,11815.5753,W,59.5,39.3,140816,,*26
$GPGGA,165919.00,3452.7787,N,11815.5597,W,2,10,0.70,757.0,M,,,,*13
$GPRMC,165919.00,A,3452.7787,N,11815.5597,W,61.6,25.9,140816,,*2A
$GPGGA,165920.00,3452.7944,N,11815.5506,W,2,10,0.70,757.0,M,,,,*10
$GPRMC,165920.00,A,3452.7944,N,11815.5506,W,63.1,8.1,140816,,*1B
$GPGGA,165921.00,3452.8120,N,11815.5482,W,2,10,0.70,756.0,M,,,,*18
$GPRMC,165921.00,A,3452.8120,N,11815.5482,W,63.1,349.1,140816,,*14
$GPGGA,165922.00,3452.8292,N,11815.5525,W,2,11,0.70,757.0,M,,,,*1D
$GPRMC,165922.00,A,3452.8292,N,11815.5525,W,62.3,329.3,140816,,*16
$GPGGA,165923.00,3452.8438,N,11815.5643,W,2,11,0.70,758.0,M,,,,*16
$GPRMC,165923.00,A,3452.8438,N,11815.5643,W,57.7,315.9,140816,,*15
$GPGGA,165924.00,3452.8548,N,11815.5784,W,2,11,0.70,759.0,M,,,,*1C
$GPRMC,165924.00,A,3452.8548,N,11815.5784,W,43.7,317.2,140816,,*12
$GPGGA,165925.00,3452.8634,N,11815.5882,W,2,11,0.70,760.0,M,,,,*16
$GPRMC,165925.00,A,3452.8634,N,11815.5882,W,39.2,343.4,140816,,*1D
$GPGGA,165926.00,3452.8742,N,11815.5911,W,2,11,0.70,760.0,M,,,,*1E
$GPRMC,165926.00,A,3452.8742,N,11815.5911,W,41.5,19.8,140816,,*2D
$GPGGA,165927.00,3452.8852,N,11815.5854,W,2,10,0.70,759.0,M,,,,*1A
$GPRMC,165927.00,A,3452.8852,N,11815.5854,W,43.6,54.6,140816,,*24
$GPGGA,165928.00,3452.8918,N,11815.5724,W,2,10,0.70,759.0,M,,,,*12
$GPRMC,165928.00,A,3452.8918,N,11815.5724,W,46.9,83.5,140816,,*2F
$GPGGA,165929.00,3452.8926,N,11815.5562,W,2,10,0.70,758.0,M,,,,*1F
$GPRMC,165929.00,A,3452.8926,N,11815.5562,W,49.6,110.7,140816,,*1A
$GPGGA,165930.00,3452.8869,N,11815.5404,W,2,09,0.70,757.0,M,,,,*1B
$GPRMC,165930.00,A,3452.8869,N,11815.5404,W,53.2,135.8,140816,,*1E
$GPGGA,165931.00,3452.8753,N,11815.5283,W,2,09,0.70,757.0,M,,,,*15
$GPRMC,165931.00,A,3452.8753,N,11815.5283,W,55.7,156.1,140816,,*1F
$GPGGA,165932.00,3452.8605,N,11815.5212,W,2,09,0.70,756.0,M,,,,*1D
$GPRMC,165932.00,A,3452.8605,N,11815.5212,W,58.4,170.2,140816,,*1F
$GPGGA,165933.00,3452.8440,N,11815.5182,W,2,09,0.70,755.0,M,,,,*16
$GPRMC,165933.00,A,3452.8440,N,11815.5182,W,61.6,178.6,140816,,*13
$GPGGA,165934.00,3452.8267,N,11815.5181,W,2,10,0.70,754.0,M,,,,*18
$GPRMC,165934.00,A,3452.8267,N,11815.5181,W,64.5,179.4,140816,,*11
$GPGGA,165935.00,3452.8085,N,11815.5182,W,2,10,0.70,754.0,M,,,,*14
$GPRMC,165935.00,A,3452.8085,N,11815.5182,W,67.3,178.4,140816,,*19
$GPGGA,165936.00,3452.7895,N,11815.5174,W,2,10,0.70,753.0,M,,,,*1F
$GPRMC,165936.00,A,3452.7895,N,11815.5174,W,70.1,178.9,140816,,*1C
$GPGGA,165937.00,3452.7698,N,11815.5170,W,2,11,0.70,753.0,M,,,,*18
$GPRMC,165937.00,A,3452.7698,N,11815.5170,W,71.6,179.5,140816,,*11
$GPGGA,165938.00,3452.7498,N,11815.5170,W,2,11,0.70,752.0,M,,,,*14
$GPRMC,165938.00,A,3452.7498,N,11815.5170,W,73.3,180.7,140816,,*1F
$GPGGA,165939.00,3452.7292,N,11815.5175,W,2,11,0.70,752.0,M,,,,*1C
$GPRMC,165939.00,A,3452.7292,N,11815.5175,W,74.8,184.9,140816,,*11
$GPGGA,165940.00,3452.7082,N,11815.5197,W,2,11,0.70,752.0,M,,,,*1D
$GPRMC,165940.00,A,3452.7082,N,11815.5197,W,76.4,191.4,140816,,*17
$GPGGA,165941.00,3452.6872,N,11815.5251,W,2,10,0.70,751.0,M,,,,*11
$GPRMC,165941.00,A,3452.6872,N,11815.5251,W,77.4,198.8,140816,,*1D
$GPGGA,165942.00,3452.6670,N,11815.5337,W,2,11,0.70,751.0,M,,,,*1E
$GPRMC,165942.00,A,3452.6670,N,11815.5337,W,79.0,203.9,140816,,*19
$GPGGA,165943.00,3452.6466,N,11815.5449,W,2,11,0.70,750.0,M,,,,*15
$GPRMC,165943.00,A,3452.6466,N,11815.5449,W,73.4,199.9,140816,,*1D
$GPGGA,165944.00,3452.6275,N,11815.5531,W,2,11,0.70,750.0,M,,,,*18
$GPRMC,165944.00,A,3452.6275,N,11815.5531,W,72.7,187.8,140816,,*1C
$GPGGA,165945.00,3452.6075,N,11815.5559,W,2,11,0.70,749.0,M,,,,*1D
$GPRMC,165945.00,A,3452.6075,N,11815.5559,W,71.0,177.9,140816,,*1B
$GPGGA,165946.00,3452.5878,N,11815.5545,W,2,11,0.70,748.0,M,,,,*14
$GPRMC,165946.00,A,3452.5878,N,11815.5545,W,56.7,177.1,140816,,*19
$GPGGA,165947.00,3452.5724,N,11815.5536,W,2,11,0.70,746.0,M,,,,*19
$GPRMC,165947.00,A,3452.5724,N,11815.5536,W,43.4,173.9,140816,,*11
$GPGGA,165948.00,3452.5609,N,11815.5521,W,2,11,0.70,746.0,M,,,,*1E
$GPRMC,165948.00,A,3452.5609,N,11815.5521,W,40.0,149.0,140816,,*11
$GPGGA,165949.00,3452.5518,N,11815.5444,W,2,11,0.70,745.0,M,,,,*1D
$GPRMC,165949.00,A,3452.5518,N,11815.5444,W,41.5,121.9,140816,,*12
$GPGGA,165950.00,3452.5460,N,11815.5319,W,2,11,0.70,744.0,M,,,,*15
$GPRMC,165950.00,A,3452.5460,N,11815.5319,W,44.8,99.3,140816,,*2B
$GPGGA,165951.00,3452.5444,N,11815.5164,W,2,11,0.70,744.0,M,,,,*1A
$GPRMC,165951.00,A,3452.5444,N,11815.5164,W,48.9,93.0,140816,,*20
$GPGGA,165952.00,3452.5439,N,11815.4994,W,2,11,0.70,743.0,M,,,,*12
$GPRMC,165952.00,A,3452.5439,N,11815.4994,W,51.6,113.5,140816,,*14
$GPGGA,165953.00,3452.5378,N,11815.4834,W,2,11,0.70,742.0,M,,,,*1B
$GPRMC,165953.00,A,3452.5378,N,11815.4834,W,53.8,135.8,140816,,*19
$GPGGA,165954.00,3452.5266,N,11815.4709,W,2,10,0.70,741.0,M,,,,*11
$GPRMC,165954.00,A,3452.5266,N,11815.4709,W,53.0,145.5,140816,,*13
$GPGGA,165955.00,3452.5141,N,11815.4610,W,2,10,0.70,741.0,M,,,,*1F
$GPRMC,165955.00,A,3452.5141,N,11815.4610,W,48.8,132.5,140816,,*1F
$GPGGA,165956.00,3452.5053,N,11815.4486,W,2,10,0.70,741.0,M,,,,*13
$GPRMC,165956.00,A,3452.5053,N,11815.4486,W,43.7,113.8,140816,,*19
$GPGGA,165957.00,3452.5008,N,11815.4349,W,2,10,0.70,741.0,M,,,,*18
$GPRMC,165957.00,A,3452.5008,N,11815.4349,W,31.4,115.9,140816,,*13
$GPGGA,165958.00,3452.4971,N,11815.4257,W,2,10,0.70,741.0,M,,,,*1F
$GPRMC,165958.00,A,3452.4971,N,11815.4257,W,32.2,148.2,140816,,*12
$GPGGA,165959.00,3452.4891,N,11815.4204,W,2,11,0.70,741.0,M,,,,*16
$GPRMC,165959.00,A,3452.4891,N,11815.4204,W,34.4,178.4,140816,,*1F
$GPGGA,170000.00,3452.4794,N,11815.4208,W,2,11,0.70,740.0,M,,,,*10
$GPRMC,170000.00,A,3452.4794,N,11815.4208,W,33.6,183.7,140816,,*1A
$GPGGA,170001.00,3452.4701,N,11815.4221,W,2,11,0.70,740.0,M,,,,*16
$GPRMC,170001.00,A,3452.4701,N,11815.4221,W,37.1,241.1,140816,,*14
$GPGGA,170002.00,3452.4672,N,11815.4391,W,2,11,0.70,740.0,M,,,,*1A
$GPRMC,170002.00,A,3452.4672,N,11815.4391,W,40.0,264.4,140816,,*1B
$GPGGA,170003.00,3452.4664,N,11815.4530,W,2,11,0.70,739.0,M,,,,*1F
$GPRMC,170003.00,A,3452.4664,N,11815.4530,W,42.2,283.8,140816,,*15
$GPGGA,170004.00,3452.4697,N,11815.4669,W,2,11,0.70,739.0,M,,,,*1B
$GPRMC,170004.00,A,3452.4697,N,11815.4669,W,45.9,289.6,140816,,*19
$GPGGA,170005.00,3452.4742,N,11815.4817,W,2,11,0.70,739.0,M,,,,*14
$GPRMC,170005.00,A,3452.4742,N,11815.4817,W,53.7,287.8,140816,,*1F
$GPGGA,170007.00,3452.4832,N,11815.5155,W,2,10,0.70,739.0,M,,,,*11
$GPRMC,170007.00,A,3452.4832,N,11815.5155,W,59.0,287.3,140816,,*1D
$GPGGA,175653.00,3452.4886,N,11815.5362,W,2,10,0.80,738.0,M,,,,*14
$GPRMC,175653.00,A,3452.4886,N,11815.5362,W,53.6,287.7,140816,,*1E
$GPGGA,175654.00,3452.4934,N,11815.5535,W,2,10,0.80,739.0,M,,,,*1E
$GPRMC,175654.00,A,3452.4934,N,11815.5535,W,56.3,287.7,140816,,*15
$GPGGA,175655.00,3452.4985,N,11815.5716,W,2,10,0.80,739.0,M,,,,*16
$GPRMC,175655.00,A,3452.4985,N,11815.5716,W,59.1,287.6,140816,,*11
$GPGGA,175656.00,3452.5036,N,11815.5908,W,2,09,0.80,739.0,M,,,,*1C
$GPRMC,175656.00,A,3452.5036,N,11815.5908,W,61.7,287.5,140816,,*1D
$GPGGA,175657.00,3452.5088,N,11815.6108,W,2,09,0.80,740.0,M,,,,*1D
$GPRMC,175657.00,A,3452.5088,N,11815.6108,W,63.9,286.2,140816,,*18
$GPGGA,175658.00,3452.5141,N,11815.6317,W,2,09,0.80,741.0,M,,,,*1B
$GPRMC,175658.00,A,3452.5141,N,11815.6317,W,64.6,286.3,140816,,*16
$GPGGA,175659.00,3452.5190,N,11815.6528,W,2,10,0.80,741.0,M,,,,*14
$GPRMC,175659.00,A,3452.5190,N,11815.6528,W,63.8,291.3,140816,,*1E
$GPGGA,175700.00,3452.5259,N,11815.6732,W,2,10,0.80,743.0,M,,,,*14
$GPRMC,175700.00,A,3452.5259,N,11815.6732,W,64.4,300.6,140816,,*1B
$GPGGA,175701.00,3452.5355,N,11815.6918,W,2,10,0.80,745.0,M,,,,*18
$GPRMC,175701.00,A,3452.5355,N,11815.6918,W,64.8,311.5,140816,,*1E
$GPGGA,175702.00,3452.5479,N,11815.7078,W,2,10,0.80,747.0,M,,,,*1E
$GPRMC,175702.00,A,3452.5479,N,11815.7078,W,64.5,322.7,140816,,*15
$GPGGA,175703.00,3452.5625,N,11815.7205,W,2,10,0.80,749.0,M,,,,*12
$GPRMC,175703.00,A,3452.5625,N,11815.7205,W,61.2,332.5,140816,,*16
$GPGGA,175704.00,3452.5778,N,11815.7295,W,2,10,0.80,752.0,M,,,,*1F
$GPRMC,175704.00,A,3452.5778,N,11815.7295,W,50.4,336.1,140816,,*15
$GPGGA,175705.00,3452.5908,N,11815.7362,W,2,10,0.80,754.0,M,,,,*18
$GPRMC,175705.00,A,3452.5908,N,11815.7362,W,41.3,342.6,140816,,*17
$GPGGA,175706.00,3452.6016,N,11815.7403,W,2,10,0.80,756.0,M,,,,*1C
$GPRMC,175706.00,A,3452.6016,N,11815.7403,W,37.8,2.1,140816,,*1B
$GPGGA,175707.00,3452.6121,N,11815.7393,W,2,10,0.80,757.0,M,,,,*17
$GPRMC,175707.00,A,3452.6121,N,11815.7393,W,34.9,35.0,140816,,*26
$GPGGA,175708.00,3452.6199,N,11815.7318,W,2,10,0.80,757.0,M,,,,*18
$GPRMC,175708.00,A,3452.6199,N,11815.7318,W,34.7,38.6,140816,,*2C
$GPGGA,175709.00,3452.6270,N,11815.7241,W,2,10,0.80,756.0,M,,,,*11
$GPRMC,175709.00,A,3452.6270,N,11815.7241,W,37.2,106.8,140816,,*10
$GPGGA,175710.00,3452.6183,N,11815.7090,W,2,10,0.80,755.0,M,,,,*1B
$GPRMC,175710.00,A,3452.6183,N,11815.7090,W,41.6,126.8,140816,,*1E
$GPGGA,175711.00,3452.6109,N,11815.6976,W,2,10,0.80,754.0,M,,,,*19
$GPRMC,175711.00,A,3452.6109,N,11815.6976,W,47.0,135.6,140816,,*11
$GPGGA,175712.00,3452.6012,N,11815.6861,W,2,10,0.80,752.0,M,,,,*10
$GPRMC,175712.00,A,3452.6012,N,11815.6861,W,50.5,137.9,140816,,*10
$GPGGA,175713.00,3452.5907,N,11815.6744,W,2,10,0.80,750.0,M,,,,*15
$GPRMC,175713.00,A,3452.5907,N,11815.6744,W,54.3,137.4,140816,,*18
$GPGGA,175714.00,3452.5794,N,11815.6616,W,2,10,0.80,748.0,M,,,,*19
$GPRMC,175714.00,A,3452.5794,N,11815.6616,W,52.9,129.3,140816,,*19
$GPGGA,175715.00,3452.5702,N,11815.6479,W,2,10,0.80,746.0,M,,,,*12
$GPRMC,175715.00,A,3452.5702,N,11815.6479,W,42.2,118.9,140816,,*1E
$GPGGA,175716.00,3452.5649,N,11815.6355,W,2,10,0.80,744.0,M,,,,*14
$GPRMC,175716.00,A,3452.5649,N,11815.6355,W,39.5,96.1,140816,,*2E
$GPGGA,175717.00,3452.5640,N,11815.6222,W,2,10,0.80,744.0,M,,,,*1D
$GPRMC,175717.00,A,3452.5640,N,11815.6222,W,40.0,65.7,140816,,*26
$GPGGA,175718.00,3452.5690,N,11815.6099,W,2,10,0.80,744.0,M,,,,*1D
$GPRMC,175718.00,A,3452.5690,N,11815.6099,W,42.1,36.7,140816,,*23
$GPGGA,175719.00,3452.5790,N,11815.6017,W,2,10,0.80,745.0,M,,,,*1A
$GPRMC,175719.00,A,3452.5790,N,11815.6017,W,46.3,348.6,140816,,*18
$GPGGA,175721.00,3452.6043,N,11815.6032,W,2,10,0.80,747.0,M,,,,*1E
$GPRMC,175721.00,A,3452.6043,N,11815.6032,W,48.4,331.0,140816,,*1F
$GPGGA,175722.00,3452.6159,N,11815.6117,W,2,10,0.80,748.0,M,,,,*1E
$GPRMC,175722.00,A,3452.6159,N,11815.6117,W,49.4,319.7,140816,,*1C
$GPGGA,175723.00,3452.6263,N,11815.6227,W,2,09,0.80,749.0,M,,,,*1C
$GPRMC,175723.00,A,3452.6263,N,11815.6227,W,47.5,321.4,140816,,*10
$GPGGA,175724.00,3452.6368,N,11815.6324,W,2,09,0.80,750.0,M,,,,*1B
$GPRMC,175724.00,A,3452.6368,N,11815.6324,W,39.5,346.4,140816,,*17
$GPGGA,175725.00,3452.6477,N,11815.6325,W,2,10,0.80,751.0,M,,,,*1B
$GPRMC,175725.00,A,3452.6477,N,11815.6325,W,38.2,16.6,140816,,*2C
$GPGGA,175726.00,3452.6580,N,11815.6282,W,2,10,0.80,751.0,M,,,,*1D
$GPRMC,175726.00,A,3452.6580,N,11815.6282,W,39.6,43.7,140816,,*2E
$GPGGA,175727.00,3452.6658,N,11815.6186,W,2,10,0.80,751.0,M,,,,*1D
$GPRMC,175727.00,A,3452.6658,N,11815.6186,W,42.3,61.9,140816,,*29
$GPGGA,175728.00,3452.6710,N,11815.6055,W,2,10,0.80,751.0,M,,,,*10
$GPRMC,175728.00,A,3452.6710,N,11815.6055,W,44.4,49.4,140816,,*22
$GPGGA,175729.00,3452.6794,N,11815.5940,W,2,10,0.80,751.0,M,,,,*13
$GPRMC,175729.00,A,3452.6794,N,11815.5940,W,46.0,26.0,140816,,*2A
$GPGGA,175730.00,3452.6912,N,11815.5878,W,2,10,0.80,751.0,M,,,,*11
$GPRMC,175730.00,A,3452.6912,N,11815.5878,W,47.6,4.5,140816,,*1A
$GPGGA,175731.00,3452.7045,N,11815.5872,W,2,10,0.80,752.0,M,,,,*13
$GPRMC,175731.00,A,3452.7045,N,11815.5872,W,49.0,347.5,140816,,*17
$GPGGA,175732.00,3452.7179,N,11815.5914,W,2,10,0.80,753.0,M,,,,*1E
$GPRMC,175732.00,A,3452.7179,N,11815.5914,W,51.3,355.0,140816,,*17
$GPGGA,175733.00,3452.7321,N,11815.5927,W,2,10,0.80,754.0,M,,,,*17
$GPRMC,175733.00,A,3452.7321,N,11815.5927,W,52.5,15.7,140816,,*2C
$GPGGA,175734.00,3452.7460,N,11815.5872,W,2,10,0.80,754.0,M,,,,*13
$GPRMC,175734.00,A,3452.7460,N,11815.5872,W,54.3,36.2,140816,,*2C
$GPGGA,175735.00,3452.7582,N,11815.5757,W,2,10,0.80,754.0,M,,,,*17
$GPRMC,175735.00,A,3452.7582,N,11815.5757,W,57.7,41.2,140816,,*2F
$GPGGA,175736.00,3452.7702,N,11815.5627,W,2,10,0.80,754.0,M,,,,*18
$GPRMC,175736.00,A,3452.7702,N,11815.5627,W,60.4,32.1,140816,,*20
$GPGGA,175737.00,3452.7847,N,11815.5520,W,2,10,0.80,753.0,M,,,,*14
$GPRMC,175737.00,A,3452.7847,N,11815.5520,W,61.6,17.8,140816,,*26
$GPGGA,175738.00,3452.8014,N,11815.5462,W,2,10,0.80,753.0,M,,,,*1D
$GPRMC,175738.00,A,3452.8014,N,11815.5462,W,61.9,0.8,140816,,*16
$GPGGA,175739.00,3452.8189,N,11815.5465,W,2,10,0.80,753.0,M,,,,*1E
$GPRMC,175739.00,A,3452.8189,N,11815.5465,W,61.2,342.2,140816,,*11
$GPGGA,175740.00,3452.8349,N,11815.5534,W,2,10,0.80,754.0,M,,,,*1C
$GPRMC,175740.00,A,3452.8349,N,11815.5534,W,60.4,323.2,140816,,*14
$GPGGA,175741.00,3452.8482,N,11815.5662,W,2,10,0.80,755.0,M,,,,*1C
$GPRMC,175741.00,A,3452.8482,N,11815.5662,W,55.4,316.3,140816,,*14
$GPGGA,175742.00,3452.8593,N,11815.5795,W,2,09,0.80,756.0,M,,,,*1C
$GPRMC,175742.00,A,3452.8593,N,11815.5795,W,44.3,323.3,140816,,*1E
$GPGGA,175743.00,3452.8690,N,11815.5881,W,2,09,0.80,757.0,M,,,,*16
$GPRMC,175743.00,A,3452.8690,N,11815.5881,W,40.0,353.8,140816,,*1E
$GPGGA,175744.00,3452.8803,N,11815.5892,W,2,10,0.80,756.0,M,,,,*1E
$GPRMC,175744.00,A,3452.8803,N,11815.5892,W,39.5,355.5,140816,,*1F
$GPGGA,175745.00,3452.8913,N,11815.5899,W,2,09,0.80,757.0,M,,,,*1D
$GPRMC,175745.00,A,3452.8913,N,11815.5899,W,37.3,0.2,140816,,*19
$GPGGA,175746.00,3452.9009,N,11815.5886,W,2,10,0.80,755.0,M,,,,*19
$GPRMC,175746.00,A,3452.9009,N,11815.5886,W,45.4,95.6,140816,,*2D
$GPGGA,175747.00,3452.8889,N,11815.5567,W,2,10,0.80,754.0,M,,,,*1A
$GPRMC,175747.00,A,3452.8889,N,11815.5567,W,48.6,119.1,140816,,*12
$GPGGA,175748.00,3452.8819,N,11815.5410,W,2,10,0.80,753.0,M,,,,*1A
$GPRMC,175748.00,A,3452.8819,N,11815.5410,W,50.4,141.2,140816,,*10
$GPGGA,175749.00,3452.8702,N,11815.5295,W,2,09,0.80,752.0,M,,,,*1C
$GPRMC,175749.00,A,3452.8702,N,11815.5295,W,53.6,160.5,140816,,*1A
$GPGGA,175750.00,3452.8558,N,11815.5232,W,2,10,0.80,752.0,M,,,,*1C
$GPRMC,175750.00,A,3452.8558,N,11815.5232,W,56.7,172.0,140816,,*10
$GPGGA,175751.00,3452.8397,N,11815.5209,W,2,10,0.80,752.0,M,,,,*10
$GPRMC,175751.00,A,3452.8397,N,11815.5209,W,59.7,177.0,140816,,*16
$GPGGA,175752.00,3452.8224,N,11815.5196,W,2,09,0.80,751.0,M,,,,*14
$GPRMC,175752.00,A,3452.8224,N,11815.5196,W,62.5,179.0,140816,,*1D
$GPGGA,175753.00,3452.8050,N,11815.5193,W,2,10,0.80,750.0,M,,,,*18
$GPRMC,175753.00,A,3452.8050,N,11815.5193,W,64.8,179.3,140816,,*10
$GPGGA,175754.00,3452.7870,N,11815.5191,W,2,10,0.80,750.0,M,,,,*18
$GPRMC,175754.00,A,3452.7870,N,11815.5191,W,65.7,179.5,140816,,*18
$GPGGA,175755.00,3452.7688,N,11815.5188,W,2,10,0.80,749.0,M,,,,*10
$GPRMC,175755.00,A,3452.7688,N,11815.5188,W,67.8,179.8,140816,,*18
$GPGGA,175756.00,3452.7499,N,11815.5186,W,2,10,0.80,749.0,M,,,,*1F
$GPRMC,175756.00,A,3452.7499,N,11815.5186,W,69.8,180.1,140816,,*16
$GPGGA,175757.00,3452.7302,N,11815.5188,W,2,10,0.80,748.0,M,,,,*14
$GPRMC,175757.00,A,3452.7302,N,11815.5188,W,71.6,182.1,140816,,*19
$GPGGA,175758.00,3452.7104,N,11815.5200,W,2,10,0.80,748.0,M,,,,*1C
$GPRMC,175758.00,A,3452.7104,N,11815.5200,W,73.2,188.9,140816,,*15
$GPGGA,175759.00,3452.6904,N,11815.5240,W,2,09,0.80,748.0,M,,,,*18
$GPRMC,175759.00,A,3452.6904,N,11815.5240,W,74.6,197.3,140816,,*1E
$GPGGA,175800.00,3452.6707,N,11815.5319,W,2,08,0.80,748.0,M,,,,*1A
$GPRMC,175800.00,A,3452.6707,N,11815.5319,W,76.1,203.8,140816,,*1D
$GPGGA,175801.00,3452.6513,N,11815.5424,W,2,09,0.80,748.0,M,,,,*14
$GPRMC,175801.00,A,3452.6513,N,11815.5424,W,73.4,200.3,140816,,*1A
$GPGGA,175802.00,3452.6322,N,11815.5511,W,2,09,0.80,747.0,M,,,,*1B
$GPRMC,175802.00,A,3452.6322,N,11815.5511,W,70.9,190.2,140816,,*1F
$GPGGA,175803.00,3452.6129,N,11815.5549,W,2,09,0.80,746.0,M,,,,*1F
$GPRMC,175803.00,A,3452.6129,N,11815.5549,W,66.5,179.4,140816,,*10
$GPGGA,175804.00,3452.5943,N,11815.5541,W,2,10,0.80,745.0,M,,,,*1C
$GPRMC,175804.00,A,3452.5943,N,11815.5541,W,53.1,176.7,140816,,*16
$GPGGA,175805.00,3452.5800,N,11815.5530,W,2,10,0.80,744.0,M,,,,*1C
$GPRMC,175805.00,A,3452.5800,N,11815.5530,W,43.5,177.3,140816,,*17
$GPGGA,175806.00,3452.5682,N,11815.5523,W,2,10,0.80,743.0,M,,,,*1E
$GPRMC,175806.00,A,3452.5682,N,11815.5523,W,40.6,163.6,140816,,*12
$GPGGA,175807.00,3452.5578,N,11815.5482,W,2,10,0.80,743.0,M,,,,*13
$GPRMC,175807.00,A,3452.5578,N,11815.5482,W,38.1,136.0,140816,,*11
$GPGGA,175808.00,3452.5505,N,11815.5383,W,2,10,0.80,742.0,M,,,,*11
$GPRMC,175808.00,A,3452.5505,N,11815.5383,W,39.8,110.3,140816,,*1D
$GPGGA,175809.00,3452.5474,N,11815.5253,W,2,10,0.80,741.0,M,,,,*18
$GPRMC,175809.00,A,3452.5474,N,11815.5253,W,44.2,97.9,140816,,*23
$GPGGA,175810.00,3452.5461,N,11815.5100,W,2,10,0.80,740.0,M,,,,*10
$GPRMC,175810.00,A,3452.5461,N,11815.5100,W,45.1,100.4,140816,,*1A
$GPGGA,175811.00,3452.5441,N,11815.4949,W,2,10,0.80,739.0,M,,,,*19
$GPRMC,175811.00,A,3452.5441,N,11815.4949,W,42.2,111.1,140816,,*1C
$GPGGA,175812.00,3452.5397,N,11815.4818,W,2,10,0.80,738.0,M,,,,*12
$GPRMC,175812.00,A,3452.5397,N,11815.4818,W,42.3,134.4,140816,,*15
$GPGGA,175813.00,3452.5310,N,11815.4717,W,2,10,0.80,738.0,M,,,,*1C
$GPRMC,175813.00,A,3452.5310,N,11815.4717,W,46.2,146.7,140816,,*18
$GPGGA,175814.00,3452.5199,N,11815.4633,W,2,10,0.80,738.0,M,,,,*1F
$GPRMC,175814.00,A,3452.5199,N,11815.4633,W,44.2,140.2,140816,,*1A
$GPGGA,175815.00,3452.5105,N,11815.4536,W,2,10,0.80,738.0,M,,,,*1D
$GPRMC,175815.00,A,3452.5105,N,11815.4536,W,40.6,119.9,140816,,*1F
$GPGGA,175816.00,3452.5052,N,11815.4414,W,2,09,0.80,738.0,M,,,,*14
$GPRMC,175816.00,A,3452.5052,N,11815.4414,W,36.3,107.8,140816,,*14
$GPGGA,175817.00,3452.5025,N,11815.4296,W,2,10,0.80,738.0,M,,,,*11
$GPRMC,175817.00,A,3452.5025,N,11815.4296,W,33.6,123.8,140816,,*1F
$GPGGA,175818.00,3452.4970,N,11815.4202,W,2,10,0.80,738.0,M,,,,*1B
$GPRMC,175818.00,A,3452.4970,N,11815.4202,W,30.4,147.9,140816,,*17
$GPGGA,175819.00,3452.4895,N,11815.4152,W,2,10,0.80,738.0,M,,,,*16
$GPRMC,175819.00,A,3452.4895,N,11815.4152,W,28.6,173.7,140816,,*18
$GPGGA,175820.00,3452.4816,N,11815.4150,W,2,10,0.80,737.0,M,,,,*1A
$GPRMC,175820.00,A,3452.4816,N,11815.4150,W,28.4,197.5,140816,,*11
$GPGGA,175821.00,3452.4740,N,11815.4183,W,2,09,0.80,737.0,M,,,,*11
$GPRMC,175821.00,A,3452.4740,N,11815.4183,W,26.3,219.1,140816,,*1A
$GPGGA,175822.00,3452.4685,N,11815.4244,W,2,10,0.80,737.0,M,,,,*1A
$GPRMC,175822.00,A,3452.4685,N,11815.4244,W,24.3,242.1,140816,,*15
$GPGGA,175823.00,3452.4659,N,11815.4318,W,2,10,0.80,736.0,M,,,,*13
$GPRMC,175823.00,A,3452.4659,N,11815.4318,W,26.6,266.4,140816,,*19
$GPGGA,175824.00,3452.4657,N,11815.4410,W,2,10,0.80,736.0,M,,,,*15
$GPRMC,175824.00,A,3452.4657,N,11815.4410,W,30.4,283.4,140816,,*11
$GPGGA,175825.00,3452.4680,N,11815.4511,W,2,09,0.80,736.0,M,,,,*16
$GPRMC,175825.00,A,3452.4680,N,11815.4511,W,34.1,286.9,140816,,*13
$GPGGA,175826.00,3452.4708,N,11815.4623,W,2,09,0.80,736.0,M,,,,*16
$GPRMC,175826.00,A,3452.4708,N,11815.4623,W,37.9,287.4,140816,,*14
$GPGGA,175827.00,3452.4739,N,11815.4747,W,2,10,0.80,736.0,M,,,,*1E
$GPRMC,175827.00,A,3452.4739,N,11815.4747,W,40.6,287.5,140816,,*1A
$GPGGA,175828.00,3452.4774,N,11815.4877,W,2,10,0.80,736.0,M,,,,*14
$GPRMC,175828.00,A,3452.4774,N,11815.4877,W,42.0,287.3,140816,,*12
$GPGGA,175829.00,3452.4809,N,11815.5012,W,2,10,0.80,736.0,M,,,,*1A
$GPRMC,175829.00,A,3452.4809,N,11815.5012,W,44.2,287.4,140816,,*1F
$GPGGA,175830.00,3452.4846,N,11815.5155,W,2,10,0.80,736.0,M,,,,*1B
$GPRMC,175830.00,A,3452.4846,N,11815.5155,W,46.2,288.5,140816,,*12
$GPGGA,184645.00,3452.4789,N,11815.5270,W,2,09,0.80,745.0,M,,,,*1D
$GPRMC,184645.00,A,3452.4789,N,11815.5270,W,1.0,289.5,140816,,*28
$GPGGA,184646.00,3452.4789,N,11815.5272,W,2,09,0.80,745.0,M,,,,*1C
$GPRMC,184646.00,A,3452.4789,N,11815.5272,W,1.0,289.5,140816,,*29
$GPGGA,184647.00,3452.4790,N,11815.5273,W,2,09,0.80,745.0,M,,,,*14
$GPRMC,184647.00,A,3452.4790,N,11815.5273,W,0.0,289.5,140816,,*20
$GPGGA,184648.00,3452.4790,N,11815.5272,W,2,09,0.80,744.0,M,,,,*1B
$GPRMC,184648.00,A,3452.4790,N,11815.5272,W,0.0,289.5,140816,,*2E
$GPGGA,184649.00,3452.4790,N,11815.5272,W,2,09,0.80,744.0,M,,,,*1A
$GPRMC,184649.00,A,3452.4790,N,11815.5272,W,0.0,289.5,140816,,*2F
$GPGGA,184650.00,3452.4789,N,11815.5272,W,2,09,0.80,744.0,M,,,,*1A
$GPRMC,184650.00,A,3452.4789,N,11815.5272,W,0.0,289.5,140816,,*2F
$GPGGA,184651.00,3452.4789,N,11815.5272,W,2,09,0.80,744.0,M,,,,*1B
$GPRMC,184651.00,A,3452.4789,N,11815.5272,W,0.0,289.5,140816,,*2E
$GPGGA,184652.00,3452.4789,N,11815.5273,W,2,10,0.80,744.0,M,,,,*11
$GPRMC,184652.00,A,3452.4789,N,11815.5273,W,0.0,289.5,140816,,*2C
$GPGGA,184653.00,3452.4789,N,11815.5273,W,2,10,0.80,744.0,M,,,,*10
$GPRMC,184653.00,A,3452.4789,N,11815.5273,W,0.0,289.5,140816,,*2D
$GPGGA,184654.00,3452.4789,N,11815.5273,W,2,10,0.80,744.0,M,,,,*17
$GPRMC,184654.00,A,3452.4789,N,11815.5273,W,0.0,289.5,140816,,*2A
$GPGGA,184655.00,3452.4789,N,11815.5273,W,2,09,0.80,744.0,M,,,,*1E
$GPRMC,184655.00,A,3452.4789,N,11815.5273,W,0.0,289.5,140816,,*2B
$GPGGA,184656.00,3452.4789,N,11815.5273,W,2,09,0.80,744.0,M,,,,*1D
$GPRMC,184656.00,A,3452.4789,N,11815.5273,W,0.0,289.5,140816,,*28
$GPGGA,184657.00,3452.4789,N,11815.5274,W,2,09,0.80,744.0,M,,,,*1B
$GPRMC,184657.00,A,3452.4789,N,11815.5274,W,0.0,289.5,140816,,*2E
$GPGGA,184658.00,3452.4789,N,11815.5274,W,2,09,0.80,744.0,M,,,,*14
$GPRMC,184658.00,A,3452.4789,N,11815.5274,W,0.0,289.5,140816,,*21
$GPGGA,184659.00,3452.4789,N,11815.5274,W,2,09,0.80,744.0,M,,,,*15
$GPRMC,184659.00,A,3452.4789,N,11815.5274,W,0.0,289.5,140816,,*20
$GPGGA,184700.00,3452.4789,N,11815.5274,W,2,09,0.80,744.0,M,,,,*18
$GPRMC,184700.00,A,3452.4789,N,11815.5274,W,0.0,289.5,140816,,*2D
$GPGGA,184701.00,3452.4789,N,11815.5274,W,2,09,0.80,744.0,M,,,,*19
$GPRMC,184701.00,A,3452.4789,N,11815.5274,W,0.0,289.5,140816,,*2C
$GPGGA,184702.00,3452.4789,N,11815.5274,W,2,09,0.80,744.0,M,,,,*1A
$GPRMC,184702.00,A,3452.4789,N,11815.5274,W,0.0,289.5,140816,,*2F
$GPGGA,184703.00,3452.4789,N,11815.5274,W,2,09,0.80,744.0,M,,,,*1B
$GPRMC,184703.00,A,3452.4789,N,11815.5274,W,0.0,289.5,140816,,*2E
$GPGGA,184704.00,3452.4789,N,11815.5274,W,2,09,0.80,744.0,M,,,,*1C
$GPRMC,184704.00,A,3452.4789,N,11815.5274,W,0.0,289.5,140816,,*29
$GPGGA,184705.00,3452.4789,N,11815.5274,W,2,09,0.80,744.0,M,,,,*1D
$GPRMC,184705.00,A,3452.4789,N,11815.5274,W,0.0,289.5,140816,,*28
$GPGGA,184706.00,3452.4789,N,11815.5274,W,2,10,0.80,744.0,M,,,,*16
$GPRMC,184706.00,A,3452.4789,N,11815.5274,W,0.0,289.5,140816,,*2B
$GPGGA,184707.00,3452.4789,N,11815.5274,W,2,09,0.80,744.0,M,,,,*1F
$GPRMC,184707.00,A,3452.4789,N,11815.5274,W,0.0,289.5,140816,,*2A
$GPGGA,184708.00,3452.4789,N,11815.5274,W,2,09,0.80,744.0,M,,,,*10
$GPRMC,184708.00,A,3452.4789,N,11815.5274,W,0.0,289.5,140816,,*25
$GPGGA,184709.00,3452.4789,N,11815.5274,W,2,09,0.80,744.0,M,,,,*11
$GPRMC,184709.00,A,3452.4789,N,11815.5274,W,0.0,289.5,140816,,*24
$GPGGA,184710.00,3452.4789,N,11815.5274,W,2,09,0.80,744.0,M,,,,*19
$GPRMC,184710.00,A,3452.4789,N,11815.5274,W,0.0,289.5,140816,,*2C
$GPGGA,184711.00,3452.4789,N,11815.5274,W,2,09,0.80,744.0,M,,,,*18
$GPRMC,184711.00,A,3452.4789,N,11815.5274,W,0.0,289.5,140816,,*2D
$GPGGA,184712.00,3452.4790,N,11815.5276,W,2,10,0.80,744.0,M,,,,*19
$GPRMC,184712.00,A,3452.4790,N,11815.5276,W,1.1,289.3,140816,,*22
$GPGGA,184713.00,3452.4791,N,11815.5280,W,2,10,0.80,744.0,M,,,,*10
$GPRMC,184713.00,A,3452.4791,N,11815.5280,W,1.3,289.2,140816,,*28
$GPGGA,184714.00,3452.4792,N,11815.5285,W,2,10,0.80,744.0,M,,,,*11
$GPRMC,184714.00,A,3452.4792,N,11815.5285,W,3.1,284.7,140816,,*21
$GPGGA,184715.00,3452.4794,N,11815.5293,W,2,10,0.80,744.0,M,,,,*11
$GPRMC,184715.00,A,3452.4794,N,11815.5293,W,6.1,284.6,140816,,*25
$GPGGA,184716.00,3452.4798,N,11815.5310,W,2,10,0.80,744.0,M,,,,*14
$GPRMC,184716.00,A,3452.4798,N,11815.5310,W,9.1,284.8,140816,,*21
$GPGGA,184717.00,3452.4804,N,11815.5338,W,2,10,0.80,744.0,M,,,,*15
$GPRMC,184717.00,A,3452.4804,N,11815.5338,W,12.8,286.2,140816,,*1B
$GPGGA,184718.00,3452.4815,N,11815.5392,W,2,09,0.80,744.0,M,,,,*12
$GPRMC,184718.00,A,3452.4815,N,11815.5392,W,13.0,286.2,140816,,*1D
$GPGGA,184719.00,3452.4825,N,11815.5433,W,2,09,0.80,743.0,M,,,,*1B
$GPRMC,184719.00,A,3452.4825,N,11815.5433,W,13.3,284.8,140816,,*18
$GPGGA,184720.00,3452.4834,N,11815.5477,W,2,10,0.80,743.0,M,,,,*19
$GPRMC,184720.00,A,3452.4834,N,11815.5477,W,14.5,284.9,140816,,*12
$GPGGA,184721.00,3452.4845,N,11815.5526,W,2,10,0.80,743.0,M,,,,*1B
$GPRMC,184721.00,A,3452.4845,N,11815.5526,W,15.0,285.0,140816,,*1C
$GPGGA,184722.00,3452.4855,N,11815.5574,W,2,09,0.80,743.0,M,,,,*16
$GPRMC,184722.00,A,3452.4855,N,11815.5574,W,14.5,285.5,140816,,*18
$GPGGA,184723.00,3452.4866,N,11815.5620,W,2,10,0.80,742.0,M,,,,*1C
$GPRMC,184723.00,A,3452.4866,N,11815.5620,W,13.8,286.3,140816,,*14
$GPGGA,184724.00,3452.4878,N,11815.5665,W,2,10,0.80,742.0,M,,,,*15
$GPRMC,184724.00,A,3452.4878,N,11815.5665,W,13.3,288.3,140816,,*18
$GPGGA,184725.00,3452.4888,N,11815.5708,W,2,09,0.80,743.0,M,,,,*18
$GPRMC,184725.00,A,3452.4888,N,11815.5708,W,13.0,289.0,140816,,*1D
$GPGGA,184726.00,3452.4898,N,11815.5749,W,2,09,0.80,743.0,M,,,,*1F
$GPRMC,184726.00,A,3452.4898,N,11815.5749,W,12.4,290.7,140816,,*10
$GPGGA,184727.00,3452.4911,N,11815.5789,W,2,09,0.80,743.0,M,,,,*12
$GPRMC,184727.00,A,3452.4911,N,11815.5789,W,11.9,289.7,140816,,*1B
$GPGGA,184728.00,3452.4922,N,11815.5828,W,2,10,0.80,743.0,M,,,,*11
$GPRMC,184728.00,A,3452.4922,N,11815.5828,W,10.3,273.4,140816,,*1D
$GPGGA,184729.00,3452.4923,N,11815.5862,W,2,10,0.80,743.0,M,,,,*1F
$GPRMC,184729.00,A,3452.4923,N,11815.5862,W,7.5,255.2,140816,,*21
$GPGGA,184730.00,3452.4915,N,11815.5886,W,2,10,0.80,743.0,M,,,,*18
$GPRMC,184730.00,A,3452.4915,N,11815.5886,W,5.5,221.6,140816,,*23
$GPGGA,184731.00,3452.4905,N,11815.5896,W,2,10,0.80,743.0,M,,,,*19
$GPRMC,184731.00,A,3452.4905,N,11815.5896,W,5.9,167.2,140816,,*2B
$GPGGA,184732.00,3452.4886,N,11815.5890,W,2,10,0.80,743.0,M,,,,*16
$GPRMC,184732.00,A,3452.4886,N,11815.5890,W,6.7,130.0,140816,,*29
$GPGGA,184733.00,3452.4875,N,11815.5870,W,2,10,0.80,743.0,M,,,,*15
$GPRMC,184733.00,A,3452.4875,N,11815.5870,W,8.6,115.5,140816,,*27
$GPGGA,184734.00,3452.4863,N,11815.5841,W,2,09,0.80,742.0,M,,,,*1E
$GPRMC,184734.00,A,3452.4863,N,11815.5841,W,11.5,113.5,140816,,*18
$GPGGA,184735.00,3452.4849,N,11815.5803,W,2,09,0.80,742.0,M,,,,*11
$GPRMC,184735.00,A,3452.4849,N,11815.5803,W,13.9,111.6,140816,,*18
$GPGGA,184736.00,3452.4834,N,11815.5758,W,2,10,0.80,742.0,M,,,,*11
$GPRMC,184736.00,A,3452.4834,N,11815.5758,W,15.5,110.9,140816,,*14
$GPGGA,184737.00,3452.4819,N,11815.5709,W,2,10,0.80,742.0,M,,,,*1B
$GPRMC,184737.00,A,3452.4819,N,11815.5709,W,15.9,110.0,140816,,*1B
$GPGGA,184738.00,3452.4802,N,11815.5658,W,2,10,0.80,741.0,M,,,,*18
$GPRMC,184738.00,A,3452.4802,N,11815.5658,W,16.5,110.5,140816,,*11
$GPGGA,184739.00,3452.4787,N,11815.5605,W,2,10,0.80,741.0,M,,,,*13
$GPRMC,184739.00,A,3452.4787,N,11815.5605,W,16.9,110.4,140816,,*17
$GPGGA,184740.00,3452.4771,N,11815.5549,W,2,10,0.80,741.0,M,,,,*1F
$GPRMC,184740.00,A,3452.4771,N,11815.5549,W,17.1,110.1,140816,,*17
$GPGGA,184741.00,3452.4754,N,11815.5495,W,2,10,0.80,741.0,M,,,,*19
$GPRMC,184741.00,A,3452.4754,N,11815.5495,W,17.0,109.3,140816,,*1A
$GPGGA,184742.00,3452.4741,N,11815.5441,W,2,10,0.80,741.0,M,,,,*17
$GPRMC,184742.00,A,3452.4741,N,11815.5441,W,16.7,105.6,140816,,*1B
$GPGGA,184743.00,3452.4729,N,11815.5384,W,2,10,0.80,740.0,M,,,,*17
$GPRMC,184743.00,A,3452.4729,N,11815.5384,W,15.8,103.0,140816,,*16
$GPGGA,184744.00,3452.4720,N,11815.5335,W,2,10,0.80,741.0,M,,,,*12
$GPRMC,184744.00,A,3452.4720,N,11815.5335,W,14.2,100.7,140816,,*1D
$GPGGA,184745.00,3452.4713,N,11815.5289,W,2,08,0.80,741.0,M,,,,*1C
$GPRMC,184745.00,A,3452.4713,N,11815.5289,W,12.3,98.9,140816,,*23
$GPGGA,184746.00,3452.4707,N,11815.5250,W,2,09,0.80,740.0,M,,,,*1E
$GPRMC,184746.00,A,3452.4707,N,11815.5250,W,9.4,97.7,140816,,*1D
$GPGGA,184747.00,3452.4705,N,11815.5219,W,2,09,0.80,740.0,M,,,,*10
$GPRMC,184747.00,A,3452.4705,N,11815.5219,W,6.4,96.9,140816,,*13
$GPGGA,184748.00,3452.4703,N,11815.5198,W,2,09,0.80,740.0,M,,,,*13
$GPRMC,184748.00,A,3452.4703,N,11815.5198,W,3.6,96.7,140816,,*19
$GPGGA,184749.00,3452.4701,N,11815.5188,W,2,09,0.80,740.0,M,,,,*11
$GPRMC,184749.00,A,3452.4701,N,11815.5188,W,0.9,96.8,140816,,*18
$GPGGA,184750.00,3452.4698,N,11815.5185,W,2,09,0.80,740.0,M,,,,*15
$GPRMC,184750.00,A,3452.4698,N,11815.5185,W,0.9,96.8,140816,,*1C
$GPGGA,184751.00,3452.4698,N,11815.5184,W,2,09,0.80,740.0,M,,,,*15
$GPRMC,184751.00,A,3452.4698,N,11815.5184,W,0.0,96.8,140816,,*15
$GPGGA,184752.00,3452.4699,N,11815.5184,W,2,10,0.80,740.0,M,,,,*1F
$GPRMC,184752.00,A,3452.4699,N,11815.5184,W,0.0,96.8,140816,,*17
$GPGGA,184753.00,3452.4699,N,11815.5182,W,2,10,0.80,740.0,M,,,,*18
$GPRMC,184753.00,A,3452.4699,N,11815.5182,W,0.0,96.8,140816,,*10
$GPGGA,184754.00,3452.4699,N,11815.5182,W,2,10,0.80,739.0,M,,,,*11
$GPRMC,184754.00,A,3452.4699,N,11815.5182,W,0.0,96.8,140816,,*17
$GPGGA,184755.00,3452.4699,N,11815.5182,W,2,09,0.80,739.0,M,,,,*18
$GPRMC,184755.00,A,3452.4699,N,11815.5182,W,0.0,96.8,140816,,*16
$GPGGA,184816.00,3452.4780,N,11815.5265,W,2,09,0.80,738.0,M,,,,*12
$GPRMC,184816.00,A,3452.4780,N,11815.5265,W,4.8,285.9,140816,,*20
$GPGGA,184817.00,3452.4783,N,11815.5280,W,2,10,0.80,738.0,M,,,,*13
$GPRMC,184817.00,A,3452.4783,N,11815.5280,W,7.4,285.8,140816,,*27
$GPGGA,184818.00,3452.4789,N,11815.5306,W,2,09,0.80,738.0,M,,,,*11
$GPRMC,184818.00,A,3452.4789,N,11815.5306,W,13.0,286.0,140816,,*17
$GPGGA,184819.00,3452.4799,N,11815.5351,W,2,10,0.80,738.0,M,,,,*1B
$GPRMC,184819.00,A,3452.4799,N,11815.5351,W,19.3,286.5,140816,,*19
$GPGGA,184820.00,3452.4814,N,11815.5417,W,2,10,0.80,738.0,M,,,,*1E
$GPRMC,184820.00,A,3452.4814,N,11815.5417,W,25.7,286.8,140816,,*1A
$GPGGA,184821.00,3452.4836,N,11815.5500,W,2,09,0.80,738.0,M,,,,*10
$GPRMC,184821.00,A,3452.4836,N,11815.5500,W,28.0,286.9,140816,,*17
$GPGGA,184822.00,3452.4858,N,11815.5593,W,2,09,0.80,738.0,M,,,,*11
$GPRMC,184822.00,A,3452.4858,N,11815.5593,W,32.5,289.1,140816,,*1F
$GPGGA,184823.00,3452.4887,N,11815.5699,W,2,10,0.80,738.0,M,,,,*13
$GPRMC,184823.00,A,3452.4887,N,11815.5699,W,36.9,290.8,140816,,*1C
$GPGGA,184824.00,3452.4922,N,11815.5818,W,2,10,0.80,738.0,M,,,,*1D
$GPRMC,184824.00,A,3452.4922,N,11815.5818,W,41.3,292.3,140816,,*11
$GPGGA,184825.00,3452.4966,N,11815.5949,W,2,10,0.80,739.0,M,,,,*18
$GPRMC,184825.00,A,3452.4966,N,11815.5949,W,43.3,293.2,140816,,*17
$GPGGA,184826.00,3452.5013,N,11815.6085,W,2,09,0.80,739.0,M,,,,*13
$GPRMC,184826.00,A,3452.5013,N,11815.6085,W,45.1,295.2,140816,,*16
$GPGGA,184827.00,3452.5068,N,11815.6223,W,2,10,0.80,740.0,M,,,,*16
$GPRMC,184827.00,A,3452.5068,N,11815.6223,W,47.6,296.4,140816,,*15
$GPGGA,184828.00,3452.5127,N,11815.6367,W,2,10,0.80,741.0,M,,,,*13
$GPRMC,184828.00,A,3452.5127,N,11815.6367,W,49.5,298.7,140816,,*11
$GPGGA,184829.00,3452.5194,N,11815.6517,W,2,10,0.80,742.0,M,,,,*18
$GPRMC,184829.00,A,3452.5194,N,11815.6517,W,51.4,294.3,140816,,*19
$GPGGA,184830.00,3452.5252,N,11815.6678,W,2,10,0.80,743.0,M,,,,*12
$GPRMC,184830.00,A,3452.5252,N,11815.6678,W,51.0,296.0,140816,,*17
$GPGGA,184831.00,3452.5314,N,11815.6833,W,2,10,0.80,744.0,M,,,,*16
$GPRMC,184831.00,A,3452.5314,N,11815.6833,W,52.1,305.1,140816,,*1C
$GPGGA,184832.00,3452.5402,N,11815.6977,W,2,10,0.80,746.0,M,,,,*16
$GPRMC,184832.00,A,3452.5402,N,11815.6977,W,52.5,314.9,140816,,*12
$GPGGA,184833.00,3452.5509,N,11815.7100,W,2,10,0.80,748.0,M,,,,*1A
$GPRMC,184833.00,A,3452.5509,N,11815.7100,W,52.8,323.7,140816,,*17
$GPGGA,184834.00,3452.5630,N,11815.7202,W,2,10,0.80,750.0,M,,,,*1C
$GPRMC,184834.00,A,3452.5630,N,11815.7202,W,53.1,331.1,140816,,*15
$GPGGA,184835.00,3452.5761,N,11815.7288,W,2,09,0.80,753.0,M,,,,*11
$GPRMC,184835.00,A,3452.5761,N,11815.7288,W,48.2,335.8,140816,,*17
$GPGGA,184836.00,3452.5885,N,11815.7350,W,2,10,0.80,755.0,M,,,,*1D
$GPRMC,184836.00,A,3452.5885,N,11815.7350,W,38.2,340.5,140816,,*1D
$GPGGA,184837.00,3452.5983,N,11815.7390,W,2,10,0.80,756.0,M,,,,*14
$GPRMC,184837.00,A,3452.5983,N,11815.7390,W,31.9,348.2,140816,,*1A
$GPGGA,184838.00,3452.6067,N,11815.7409,W,2,10,0.80,757.0,M,,,,*1D
$GPRMC,184838.00,A,3452.6067,N,11815.7409,W,31.7,11.4,140816,,*25
$GPGGA,184839.00,3452.6153,N,11815.7382,W,2,10,0.80,758.0,M,,,,*11
$GPRMC,184839.00,A,3452.6153,N,11815.7382,W,30.7,43.1,140816,,*25
$GPGGA,184840.00,3452.6213,N,11815.7307,W,2,10,0.80,758.0,M,,,,*15
$GPRMC,184840.00,A,3452.6213,N,11815.7307,W,30.1,46.3,140816,,*20
$GPGGA,184841.00,3452.6268,N,11815.7230,W,2,10,0.80,758.0,M,,,,*1D
$GPRMC,184841.00,A,3452.6268,N,11815.7230,W,30.1,49.8,140816,,*2C
$GPGGA,184842.00,3452.6319,N,11815.7145,W,2,10,0.80,758.0,M,,,,*18
$GPRMC,184842.00,A,3452.6319,N,11815.7145,W,24.6,52.4,140816,,*2D
$GPGGA,184843.00,3452.6344,N,11815.7086,W,2,09,0.80,758.0,M,,,,*17
$GPRMC,184843.00,A,3452.6344,N,11815.7086,W,20.6,96.1,140816,,*23
$GPGGA,184844.00,3452.6247,N,11815.6990,W,2,09,0.80,757.0,M,,,,*12
$GPRMC,184844.00,A,3452.6247,N,11815.6990,W,46.3,138.0,140816,,*18
$GPGGA,184845.00,3452.6006,N,11815.6818,W,2,10,0.80,754.0,M,,,,*1E
$GPRMC,184845.00,A,3452.6006,N,11815.6818,W,50.8,135.7,140816,,*19
$GPGGA,184846.00,3452.5890,N,11815.6693,W,2,10,0.80,752.0,M,,,,*12
$GPRMC,184846.00,A,3452.5890,N,11815.6693,W,50.3,132.2,140816,,*1A
$GPGGA,184847.00,3452.5789,N,11815.6563,W,2,10,0.80,749.0,M,,,,*12
$GPRMC,184847.00,A,3452.5789,N,11815.6563,W,43.6,125.9,140816,,*1A
$GPGGA,184848.00,3452.5716,N,11815.6442,W,2,10,0.80,747.0,M,,,,*17
$GPRMC,184848.00,A,3452.5716,N,11815.6442,W,40.8,107.6,140816,,*13
$GPGGA,184849.00,3452.5677,N,11815.6299,W,2,10,0.80,746.0,M,,,,*11
$GPRMC,184849.00,A,3452.5677,N,11815.6299,W,42.6,86.1,140816,,*27
$GPGGA,184850.00,3452.5683,N,11815.6147,W,2,10,0.80,744.0,M,,,,*10
$GPRMC,184850.00,A,3452.5683,N,11815.6147,W,40.2,51.1,140816,,*28
$GPGGA,184851.00,3452.5768,N,11815.6054,W,2,10,0.80,744.0,M,,,,*16
$GPRMC,184851.00,A,3452.5768,N,11815.6054,W,40.7,22.1,140816,,*2F
$GPGGA,184852.00,3452.5873,N,11815.6003,W,2,10,0.80,744.0,M,,,,*12
$GPRMC,184852.00,A,3452.5873,N,11815.6003,W,42.4,359.9,140816,,*1D
$GPGGA,184853.00,3452.5990,N,11815.6007,W,2,10,0.80,745.0,M,,,,*1A
$GPRMC,184853.00,A,3452.5990,N,11815.6007,W,44.0,339.8,140816,,*11
$GPGGA,184854.00,3452.6100,N,11815.6061,W,2,10,0.80,746.0,M,,,,*1C
$GPRMC,184854.00,A,3452.6100,N,11815.6061,W,45.9,324.6,140816,,*1E
$GPGGA,184855.00,3452.6204,N,11815.6155,W,2,10,0.80,747.0,M,,,,*1D
$GPRMC,184855.00,A,3452.6204,N,11815.6155,W,46.2,322.2,140816,,*14
$GPGGA,184856.00,3452.6302,N,11815.6250,W,2,10,0.80,748.0,M,,,,*10
$GPRMC,184856.00,A,3452.6302,N,11815.6250,W,38.8,327.6,140816,,*14
$GPGGA,184857.00,3452.6393,N,11815.6315,W,2,10,0.80,749.0,M,,,,*18
$GPRMC,184857.00,A,3452.6393,N,11815.6315,W,36.5,347.2,140816,,*1C
$GPGGA,184858.00,3452.6494,N,11815.6338,W,2,10,0.80,750.0,M,,,,*10
$GPRMC,184858.00,A,3452.6494,N,11815.6338,W,36.7,16.8,140816,,*23
$GPGGA,184859.00,3452.6591,N,11815.6294,W,2,10,0.80,751.0,M,,,,*13
$GPRMC,184859.00,A,3452.6591,N,11815.6294,W,37.9,44.0,140816,,*21
$GPGGA,184900.00,3452.6666,N,11815.6201,W,2,10,0.80,751.0,M,,,,*19
$GPRMC,184900.00,A,3452.6666,N,11815.6201,W,40.6,57.9,140816,,*2F
$GPGGA,184901.00,3452.6723,N,11815.6078,W,2,10,0.70,751.0,M,,,,*1B
$GPRMC,184901.00,A,3452.6723,N,11815.6078,W,43.3,49.9,140816,,*2B
$GPGGA,184902.00,3452.6805,N,11815.5969,W,2,10,0.70,751.0,M,,,,*19
$GPRMC,184902.00,A,3452.6805,N,11815.5969,W,41.3,42.0,140816,,*29
$GPGGA,184903.00,3452.6891,N,11815.5878,W,2,10,0.70,751.0,M,,,,*14
$GPRMC,184903.00,A,3452.6891,N,11815.5878,W,45.6,7.6,140816,,*12
$GPGGA,184904.00,3452.7035,N,11815.5886,W,2,10,0.70,751.0,M,,,,*15
$GPRMC,184904.00,A,3452.7035,N,11815.5886,W,47.5,348.9,140816,,*15
$GPGGA,184905.00,3452.7160,N,11815.5922,W,2,10,0.70,751.0,M,,,,*1A
$GPRMC,184905.00,A,3452.7160,N,11815.5922,W,49.6,349.9,140816,,*16
$GPGGA,184906.00,3452.7295,N,11815.5951,W,2,10,0.70,752.0,M,,,,*17
$GPRMC,184906.00,A,3452.7295,N,11815.5951,W,51.7,8.3,140816,,*1C
$GPGGA,184907.00,3452.7440,N,11815.5919,W,2,09,0.70,752.0,M,,,,*1C
$GPRMC,184907.00,A,3452.7440,N,11815.5919,W,54.1,27.7,140816,,*25
$GPGGA,184908.00,3452.7572,N,11815.5825,W,2,09,0.70,753.0,M,,,,*1C
$GPRMC,184908.00,A,3452.7572,N,11815.5825,W,57.0,40.8,140816,,*28
$GPGGA,184909.00,3452.7691,N,11815.5692,W,2,09,0.70,751.0,M,,,,*13
$GPRMC,184909.00,A,3452.7691,N,11815.5692,W,58.6,37.7,140816,,*23
$GPGGA,184910.00,3452.7822,N,11815.5571,W,2,09,0.70,751.0,M,,,,*13
$GPRMC,184910.00,A,3452.7822,N,11815.5571,W,56.9,36.5,140816,,*21
$GPGGA,184911.00,3452.7949,N,11815.5455,W,2,09,0.70,751.0,M,,,,*19
$GPRMC,184911.00,A,3452.7949,N,11815.5455,W,60.4,9.2,140816,,*18
$GPGGA,184912.00,3452.8141,N,11815.5461,W,2,09,0.70,750.0,M,,,,*13
$GPRMC,184912.00,A,3452.8141,N,11815.5461,W,61.2,349.8,140816,,*19
$GPGGA,184913.00,3452.8311,N,11815.5508,W,2,09,0.70,751.0,M,,,,*1A
$GPRMC,184913.00,A,3452.8311,N,11815.5508,W,60.4,330.9,140816,,*19
$GPGGA,184914.00,3452.8457,N,11815.5611,W,2,09,0.70,752.0,M,,,,*10
$GPRMC,184914.00,A,3452.8457,N,11815.5611,W,55.8,318.0,140816,,*19
$GPGGA,184915.00,3452.8569,N,11815.5741,W,2,09,0.70,753.0,M,,,,*18
$GPRMC,184915.00,A,3452.8569,N,11815.5741,W,44.2,319.0,140816,,*1B
$GPGGA,184916.00,3452.8657,N,11815.5835,W,2,09,0.70,754.0,M,,,,*1E
$GPRMC,184916.00,A,3452.8657,N,11815.5835,W,39.8,333.2,140816,,*10
$GPGGA,184917.00,3452.8756,N,11815.5894,W,2,09,0.70,754.0,M,,,,*14
$GPRMC,184917.00,A,3452.8756,N,11815.5894,W,37.2,7.9,140816,,*11
$GPGGA,184918.00,3452.8859,N,11815.5864,W,2,09,0.70,755.0,M,,,,*15
$GPRMC,184918.00,A,3452.8859,N,11815.5864,W,38.6,11.6,140816,,*22
$GPGGA,184919.00,3452.8965,N,11815.5834,W,2,09,0.70,754.0,M,,,,*1E
$GPRMC,184919.00,A,3452.8965,N,11815.5834,W,36.9,19.8,140816,,*2F
$GPGGA,184920.00,3452.9046,N,11815.5775,W,2,09,0.70,752.0,M,,,,*11
$GPRMC,184920.00,A,3452.9046,N,11815.5775,W,43.4,100.1,140816,,*19
$GPGGA,184921.00,3452.8918,N,11815.5516,W,2,09,0.70,752.0,M,,,,*14
$GPRMC,184921.00,A,3452.8918,N,11815.5516,W,46.7,123.8,140816,,*12
$GPGGA,184922.00,3452.8843,N,11815.5382,W,2,09,0.70,751.0,M,,,,*10
$GPRMC,184922.00,A,3452.8843,N,11815.5382,W,45.9,127.7,140816,,*13
$GPGGA,184923.00,3452.8764,N,11815.5260,W,2,09,0.70,752.0,M,,,,*15
$GPRMC,184923.00,A,3452.8764,N,11815.5260,W,53.0,160.4,140816,,*1B
$GPGGA,184924.00,3452.8589,N,11815.5222,W,2,09,0.70,750.0,M,,,,*17
$GPRMC,184924.00,A,3452.8589,N,11815.5222,W,54.0,165.2,140816,,*1F
$GPGGA,184925.00,3452.8440,N,11815.5177,W,2,09,0.70,750.0,M,,,,*11
$GPRMC,184925.00,A,3452.8440,N,11815.5177,W,58.9,177.8,140816,,*15
$GPGGA,184926.00,3452.8266,N,11815.5180,W,2,09,0.70,750.0,M,,,,*18
$GPRMC,184926.00,A,3452.8266,N,11815.5180,W,61.8,179.0,140816,,*11
$GPGGA,184927.00,3452.8092,N,11815.5177,W,2,09,0.70,750.0,M,,,,*18
$GPRMC,184927.00,A,3452.8092,N,11815.5177,W,63.5,178.8,140816,,*17
$GPGGA,184928.00,3452.7915,N,11815.5173,W,2,09,0.70,749.0,M,,,,*12
$GPRMC,184928.00,A,3452.7915,N,11815.5173,W,65.2,178.7,140816,,*1B
$GPGGA,184929.00,3452.7732,N,11815.5166,W,2,09,0.70,749.0,M,,,,*1C
$GPRMC,184929.00,A,3452.7732,N,11815.5166,W,67.0,179.1,140816,,*12
$GPGGA,184930.00,3452.7546,N,11815.5164,W,2,09,0.70,748.0,M,,,,*16
$GPRMC,184930.00,A,3452.7546,N,11815.5164,W,68.7,180.5,140816,,*13
$GPGGA,184931.00,3452.7353,N,11815.5166,W,2,09,0.70,748.0,M,,,,*17
$GPRMC,184931.00,A,3452.7353,N,11815.5166,W,70.3,184.2,140816,,*1C
$GPGGA,184932.00,3452.7158,N,11815.5187,W,2,10,0.70,748.0,M,,,,*1A
$GPRMC,184932.00,A,3452.7158,N,11815.5187,W,71.7,190.1,140816,,*1A
$GPGGA,184933.00,3452.6961,N,11815.5233,W,2,10,0.70,748.0,M,,,,*14
$GPRMC,184933.00,A,3452.6961,N,11815.5233,W,73.0,196.0,140816,,*16
$GPGGA,184934.00,3452.6767,N,11815.5303,W,2,10,0.70,748.0,M,,,,*19
$GPRMC,184934.00,A,3452.6767,N,11815.5303,W,73.3,203.1,140816,,*16
$GPGGA,184935.00,3452.6580,N,11815.5405,W,2,09,0.70,747.0,M,,,,*15
$GPRMC,184935.00,A,3452.6580,N,11815.5405,W,67.3,202.3,140816,,*1B
$GPGGA,184936.00,3452.6408,N,11815.5491,W,2,10,0.70,746.0,M,,,,*13
$GPRMC,184936.00,A,3452.6408,N,11815.5491,W,65.3,194.9,140816,,*10
$GPGGA,184937.00,3452.6231,N,11815.5546,W,2,10,0.70,746.0,M,,,,*15
$GPRMC,184937.00,A,3452.6231,N,11815.5546,W,65.9,183.7,140816,,*14
$GPGGA,184938.00,3452.6044,N,11815.5554,W,2,10,0.70,744.0,M,,,,*1B
$GPRMC,184938.00,A,3452.6044,N,11815.5554,W,58.9,177.0,140816,,*1A
$GPGGA,184939.00,3452.5883,N,11815.5539,W,2,10,0.70,743.0,M,,,,*16
$GPRMC,184939.00,A,3452.5883,N,11815.5539,W,48.8,176.6,140816,,*17
$GPGGA,184940.00,3452.5750,N,11815.5531,W,2,10,0.70,742.0,M,,,,*10
$GPRMC,184940.00,A,3452.5750,N,11815.5531,W,40.8,172.7,140816,,*1D
$GPGGA,184941.00,3452.5636,N,11815.5512,W,2,10,0.70,741.0,M,,,,*12
$GPRMC,184941.00,A,3452.5636,N,11815.5512,W,39.6,150.0,140816,,*1B
$GPGGA,184942.00,3452.5540,N,11815.5439,W,2,10,0.70,739.0,M,,,,*14
$GPRMC,184942.00,A,3452.5540,N,11815.5439,W,39.3,125.1,140816,,*14
$GPGGA,184943.00,3452.5482,N,11815.5326,W,2,10,0.70,739.0,M,,,,*13
$GPRMC,184943.00,A,3452.5482,N,11815.5326,W,41.4,102.3,140816,,*1C
$GPGGA,184944.00,3452.5462,N,11815.5185,W,2,10,0.70,738.0,M,,,,*10
$GPRMC,184944.00,A,3452.5462,N,11815.5185,W,44.2,88.4,140816,,*29
$GPGGA,184945.00,3452.5468,N,11815.5030,W,2,10,0.70,738.0,M,,,,*14
$GPRMC,184945.00,A,3452.5468,N,11815.5030,W,43.3,94.4,140816,,*26
$GPGGA,184946.00,3452.5458,N,11815.4880,W,2,10,0.70,737.0,M,,,,*19
$GPRMC,184946.00,A,3452.5458,N,11815.4880,W,42.2,97.8,140816,,*2B
$GPGGA,184947.00,3452.5437,N,11815.4743,W,2,10,0.70,738.0,M,,,,*1E
$GPRMC,184947.00,A,3452.5437,N,11815.4743,W,39.5,109.2,140816,,*14
$GPGGA,184948.00,3452.5370,N,11815.4631,W,2,10,0.70,738.0,M,,,,*11
$GPRMC,184948.00,A,3452.5370,N,11815.4631,W,44.4,143.9,140816,,*15
$GPGGA,184949.00,3452.5187,N,11815.4566,W,2,09,0.70,737.0,M,,,,*1C
$GPRMC,184949.00,A,3452.5187,N,11815.4566,W,42.7,138.4,140816,,*1B
$GPGGA,184950.00,3452.5090,N,11815.4474,W,2,09,0.70,737.0,M,,,,*11
$GPRMC,184950.00,A,3452.5090,N,11815.4474,W,40.8,119.0,140816,,*1C
$GPGGA,184951.00,3452.5051,N,11815.4340,W,2,09,0.70,736.0,M,,,,*1C
$GPRMC,184951.00,A,3452.5051,N,11815.4340,W,32.0,120.6,140816,,*11
$GPGGA,184952.00,3452.5014,N,11815.4259,W,2,10,0.70,736.0,M,,,,*1F
$GPRMC,184952.00,A,3452.5014,N,11815.4259,W,31.9,154.2,140816,,*17
$GPGGA,184953.00,3452.4924,N,11815.4216,W,2,10,0.70,735.0,M,,,,*1D
$GPRMC,184953.00,A,3452.4924,N,11815.4216,W,33.5,182.4,140816,,*15
$GPGGA,184954.00,3452.4828,N,11815.4229,W,2,10,0.70,735.0,M,,,,*1B
$GPRMC,184954.00,A,3452.4828,N,11815.4229,W,35.2,212.6,140816,,*1A
$GPGGA,184955.00,3452.4745,N,11815.4299,W,2,10,0.70,735.0,M,,,,*15
